{
  "cemetries": [
    {
      "name": "Cimitero di Bisceglie",
      "address": "Via Giovanni Bovio",
      "address_number": 108,
      "city": "Bisceglie",
      "province": "Barletta",
      "state": "Italy",
      "number_of_deads": null,
      "icon": "https://drive.google.com/open?id=1yy6nhzDXEK4YL8nmQfAJ8kZapx07Me49",
      "id": 0,
      "area_id": 52,
      "latitude": 41.2447472,
      "longitude": 16.496307
    },
    {
      "name": "Cimitero di Trani",
      "address": "Via Barletta",
      "address_number": 74,
      "city": "Trani",
      "province": "Barletta",
      "state": "Italy",
      "number_of_deads": null,
      "icon": "https://drive.google.com/open?id=1SDt2LePv0SV0CcWQsKUS3oL1N4kX7Vvd",
      "id": 1,
      "area_id": null,
      "latitude": 41.2824834,
      "longitude": 16.4048181
    },
    {
      "name": "Cimitero di Moletta",
      "address": "Via del Cimitero",
      "address_number": null,
      "city": "Molfetta",
      "province": "Barletta",
      "state": "Italy",
      "number_of_deads": null,
      "icon": "https://drive.google.com/open?id=1lePRUPlh8KgvhdmkXDG5_g40f0ANwdkO",
      "id": 2,
      "area_id": null,
      "latitude": 41.2052171,
      "longitude": 16.5801596
    },
    {
      "name": "Cimitero di Cerese",
      "address": "Via Maragnane",
      "address_number": 1,
      "city": "Borgo Virgilio",
      "province": "Mantova",
      "state": "Italy",
      "number_of_deads": null,
      "icon": "https://drive.google.com/open?id=1oEXbQzbeY4MW0h2oLtIJbcxFlSXmOZtE",
      "id": 3,
      "area_id": null,
      "latitude": 45.117311,
      "longitude": 10.805171
    },
    {
      "name": "Cimitero degli Angeli",
      "address": "Via Cremona",
      "address_number": 40,
      "city": "Castelnuovo Angeli",
      "province": "Mantova",
      "state": "Italy",
      "number_of_deads": null,
      "icon": "https://drive.google.com/open?id=1stWQfsIx9ZXhhFh1OK_0I5lq4A3ShDNM",
      "id": 4,
      "area_id": null,
      "latitude": 45.155288,
      "longitude": 10.757522
    },
        {
      "name": "Cimitero di Bisceglie",
      "address": "Via Giovanni Bovio",
      "address_number": 108,
      "city": "Bisceglie",
      "province": "Barletta",
      "state": "Italy",
      "number_of_deads": null,
      "icon": "https://drive.google.com/open?id=1yy6nhzDXEK4YL8nmQfAJ8kZapx07Me49",
      "id": 0,
      "area_id": 52,
      "latitude": 41.2447472,
      "longitude": 16.496307
    },
    {
      "name": "Cimitero di Trani",
      "address": "Via Barletta",
      "address_number": 74,
      "city": "Trani",
      "province": "Barletta",
      "state": "Italy",
      "number_of_deads": null,
      "icon": "https://drive.google.com/open?id=1SDt2LePv0SV0CcWQsKUS3oL1N4kX7Vvd",
      "id": 1,
      "area_id": null,
      "latitude": 41.2824834,
      "longitude": 16.4048181
    },
    {
      "name": "Cimitero di Moletta",
      "address": "Via del Cimitero",
      "address_number": null,
      "city": "Molfetta",
      "province": "Barletta",
      "state": "Italy",
      "number_of_deads": null,
      "icon": "https://drive.google.com/open?id=1lePRUPlh8KgvhdmkXDG5_g40f0ANwdkO",
      "id": 2,
      "area_id": null,
      "latitude": 41.2052171,
      "longitude": 16.5801596
    },
    {
      "name": "Cimitero di Cerese",
      "address": "Via Maragnane",
      "address_number": 1,
      "city": "Borgo Virgilio",
      "province": "Mantova",
      "state": "Italy",
      "number_of_deads": null,
      "icon": "https://drive.google.com/open?id=1oEXbQzbeY4MW0h2oLtIJbcxFlSXmOZtE",
      "id": 3,
      "area_id": null,
      "latitude": 45.117311,
      "longitude": 10.805171
    },
    {
      "name": "Cimitero degli Angeli",
      "address": "Via Cremona",
      "address_number": 40,
      "city": "Castelnuovo Angeli",
      "province": "Mantova",
      "state": "Italy",
      "number_of_deads": null,
      "icon": "https://drive.google.com/open?id=1stWQfsIx9ZXhhFh1OK_0I5lq4A3ShDNM",
      "id": 4,
      "area_id": null,
      "latitude": 45.155288,
      "longitude": 10.757522
    },
        {
      "name": "Cimitero di Bisceglie",
      "address": "Via Giovanni Bovio",
      "address_number": 108,
      "city": "Bisceglie",
      "province": "Barletta",
      "state": "Italy",
      "number_of_deads": null,
      "icon": "https://drive.google.com/open?id=1yy6nhzDXEK4YL8nmQfAJ8kZapx07Me49",
      "id": 0,
      "area_id": 52,
      "latitude": 41.2447472,
      "longitude": 16.496307
    },
    {
      "name": "Cimitero di Trani",
      "address": "Via Barletta",
      "address_number": 74,
      "city": "Trani",
      "province": "Barletta",
      "state": "Italy",
      "number_of_deads": null,
      "icon": "https://drive.google.com/open?id=1SDt2LePv0SV0CcWQsKUS3oL1N4kX7Vvd",
      "id": 1,
      "area_id": null,
      "latitude": 41.2824834,
      "longitude": 16.4048181
    },
    {
      "name": "Cimitero di Moletta",
      "address": "Via del Cimitero",
      "address_number": null,
      "city": "Molfetta",
      "province": "Barletta",
      "state": "Italy",
      "number_of_deads": null,
      "icon": "https://drive.google.com/open?id=1lePRUPlh8KgvhdmkXDG5_g40f0ANwdkO",
      "id": 2,
      "area_id": null,
      "latitude": 41.2052171,
      "longitude": 16.5801596
    },
    {
      "name": "Cimitero di Cerese",
      "address": "Via Maragnane",
      "address_number": 1,
      "city": "Borgo Virgilio",
      "province": "Mantova",
      "state": "Italy",
      "number_of_deads": null,
      "icon": "https://drive.google.com/open?id=1oEXbQzbeY4MW0h2oLtIJbcxFlSXmOZtE",
      "id": 3,
      "area_id": null,
      "latitude": 45.117311,
      "longitude": 10.805171
    },
    {
      "name": "Cimitero degli Angeli",
      "address": "Via Cremona",
      "address_number": 40,
      "city": "Castelnuovo Angeli",
      "province": "Mantova",
      "state": "Italy",
      "number_of_deads": null,
      "icon": "https://drive.google.com/open?id=1stWQfsIx9ZXhhFh1OK_0I5lq4A3ShDNM",
      "id": 4,
      "area_id": null,
      "latitude": 45.155288,
      "longitude": 10.757522
    },
        {
      "name": "Cimitero di Bisceglie",
      "address": "Via Giovanni Bovio",
      "address_number": 108,
      "city": "Bisceglie",
      "province": "Barletta",
      "state": "Italy",
      "number_of_deads": null,
      "icon": "https://drive.google.com/open?id=1yy6nhzDXEK4YL8nmQfAJ8kZapx07Me49",
      "id": 0,
      "area_id": 52,
      "latitude": 41.2447472,
      "longitude": 16.496307
    },
    {
      "name": "Cimitero di Trani",
      "address": "Via Barletta",
      "address_number": 74,
      "city": "Trani",
      "province": "Barletta",
      "state": "Italy",
      "number_of_deads": null,
      "icon": "https://drive.google.com/open?id=1SDt2LePv0SV0CcWQsKUS3oL1N4kX7Vvd",
      "id": 1,
      "area_id": null,
      "latitude": 41.2824834,
      "longitude": 16.4048181
    },
    {
      "name": "Cimitero di Moletta",
      "address": "Via del Cimitero",
      "address_number": null,
      "city": "Molfetta",
      "province": "Barletta",
      "state": "Italy",
      "number_of_deads": null,
      "icon": "https://drive.google.com/open?id=1lePRUPlh8KgvhdmkXDG5_g40f0ANwdkO",
      "id": 2,
      "area_id": null,
      "latitude": 41.2052171,
      "longitude": 16.5801596
    },
    {
      "name": "Cimitero di Cerese",
      "address": "Via Maragnane",
      "address_number": 1,
      "city": "Borgo Virgilio",
      "province": "Mantova",
      "state": "Italy",
      "number_of_deads": null,
      "icon": "https://drive.google.com/open?id=1oEXbQzbeY4MW0h2oLtIJbcxFlSXmOZtE",
      "id": 3,
      "area_id": null,
      "latitude": 45.117311,
      "longitude": 10.805171
    },
    {
      "name": "Cimitero degli Angeli",
      "address": "Via Cremona",
      "address_number": 40,
      "city": "Castelnuovo Angeli",
      "province": "Mantova",
      "state": "Italy",
      "number_of_deads": null,
      "icon": "https://drive.google.com/open?id=1stWQfsIx9ZXhhFh1OK_0I5lq4A3ShDNM",
      "id": 4,
      "area_id": null,
      "latitude": 45.155288,
      "longitude": 10.757522
    },
        {
      "name": "Cimitero di Bisceglie",
      "address": "Via Giovanni Bovio",
      "address_number": 108,
      "city": "Bisceglie",
      "province": "Barletta",
      "state": "Italy",
      "number_of_deads": null,
      "icon": "https://drive.google.com/open?id=1yy6nhzDXEK4YL8nmQfAJ8kZapx07Me49",
      "id": 0,
      "area_id": 52,
      "latitude": 41.2447472,
      "longitude": 16.496307
    },
    {
      "name": "Cimitero di Trani",
      "address": "Via Barletta",
      "address_number": 74,
      "city": "Trani",
      "province": "Barletta",
      "state": "Italy",
      "number_of_deads": null,
      "icon": "https://drive.google.com/open?id=1SDt2LePv0SV0CcWQsKUS3oL1N4kX7Vvd",
      "id": 1,
      "area_id": null,
      "latitude": 41.2824834,
      "longitude": 16.4048181
    },
    {
      "name": "Cimitero di Moletta",
      "address": "Via del Cimitero",
      "address_number": null,
      "city": "Molfetta",
      "province": "Barletta",
      "state": "Italy",
      "number_of_deads": null,
      "icon": "https://drive.google.com/open?id=1lePRUPlh8KgvhdmkXDG5_g40f0ANwdkO",
      "id": 2,
      "area_id": null,
      "latitude": 41.2052171,
      "longitude": 16.5801596
    },
    {
      "name": "Cimitero di Cerese",
      "address": "Via Maragnane",
      "address_number": 1,
      "city": "Borgo Virgilio",
      "province": "Mantova",
      "state": "Italy",
      "number_of_deads": null,
      "icon": "https://drive.google.com/open?id=1oEXbQzbeY4MW0h2oLtIJbcxFlSXmOZtE",
      "id": 3,
      "area_id": null,
      "latitude": 45.117311,
      "longitude": 10.805171
    },
    {
      "name": "Cimitero degli Angeli",
      "address": "Via Cremona",
      "address_number": 40,
      "city": "Castelnuovo Angeli",
      "province": "Mantova",
      "state": "Italy",
      "number_of_deads": null,
      "icon": "https://drive.google.com/open?id=1stWQfsIx9ZXhhFh1OK_0I5lq4A3ShDNM",
      "id": 4,
      "area_id": null,
      "latitude": 45.155288,
      "longitude": 10.757522
    },
        {
      "name": "Cimitero di Bisceglie",
      "address": "Via Giovanni Bovio",
      "address_number": 108,
      "city": "Bisceglie",
      "province": "Barletta",
      "state": "Italy",
      "number_of_deads": null,
      "icon": "https://drive.google.com/open?id=1yy6nhzDXEK4YL8nmQfAJ8kZapx07Me49",
      "id": 0,
      "area_id": 52,
      "latitude": 41.2447472,
      "longitude": 16.496307
    },
    {
      "name": "Cimitero di Trani",
      "address": "Via Barletta",
      "address_number": 74,
      "city": "Trani",
      "province": "Barletta",
      "state": "Italy",
      "number_of_deads": null,
      "icon": "https://drive.google.com/open?id=1SDt2LePv0SV0CcWQsKUS3oL1N4kX7Vvd",
      "id": 1,
      "area_id": null,
      "latitude": 41.2824834,
      "longitude": 16.4048181
    },
    {
      "name": "Cimitero di Moletta",
      "address": "Via del Cimitero",
      "address_number": null,
      "city": "Molfetta",
      "province": "Barletta",
      "state": "Italy",
      "number_of_deads": null,
      "icon": "https://drive.google.com/open?id=1lePRUPlh8KgvhdmkXDG5_g40f0ANwdkO",
      "id": 2,
      "area_id": null,
      "latitude": 41.2052171,
      "longitude": 16.5801596
    },
    {
      "name": "Cimitero di Cerese",
      "address": "Via Maragnane",
      "address_number": 1,
      "city": "Borgo Virgilio",
      "province": "Mantova",
      "state": "Italy",
      "number_of_deads": null,
      "icon": "https://drive.google.com/open?id=1oEXbQzbeY4MW0h2oLtIJbcxFlSXmOZtE",
      "id": 3,
      "area_id": null,
      "latitude": 45.117311,
      "longitude": 10.805171
    },
    {
      "name": "Cimitero degli Angeli",
      "address": "Via Cremona",
      "address_number": 40,
      "city": "Castelnuovo Angeli",
      "province": "Mantova",
      "state": "Italy",
      "number_of_deads": null,
      "icon": "https://drive.google.com/open?id=1stWQfsIx9ZXhhFh1OK_0I5lq4A3ShDNM",
      "id": 4,
      "area_id": null,
      "latitude": 45.155288,
      "longitude": 10.757522
    },
        {
      "name": "Cimitero di Bisceglie",
      "address": "Via Giovanni Bovio",
      "address_number": 108,
      "city": "Bisceglie",
      "province": "Barletta",
      "state": "Italy",
      "number_of_deads": null,
      "icon": "https://drive.google.com/open?id=1yy6nhzDXEK4YL8nmQfAJ8kZapx07Me49",
      "id": 0,
      "area_id": 52,
      "latitude": 41.2447472,
      "longitude": 16.496307
    },
    {
      "name": "Cimitero di Trani",
      "address": "Via Barletta",
      "address_number": 74,
      "city": "Trani",
      "province": "Barletta",
      "state": "Italy",
      "number_of_deads": null,
      "icon": "https://drive.google.com/open?id=1SDt2LePv0SV0CcWQsKUS3oL1N4kX7Vvd",
      "id": 1,
      "area_id": null,
      "latitude": 41.2824834,
      "longitude": 16.4048181
    },
    {
      "name": "Cimitero di Moletta",
      "address": "Via del Cimitero",
      "address_number": null,
      "city": "Molfetta",
      "province": "Barletta",
      "state": "Italy",
      "number_of_deads": null,
      "icon": "https://drive.google.com/open?id=1lePRUPlh8KgvhdmkXDG5_g40f0ANwdkO",
      "id": 2,
      "area_id": null,
      "latitude": 41.2052171,
      "longitude": 16.5801596
    },
    {
      "name": "Cimitero di Cerese",
      "address": "Via Maragnane",
      "address_number": 1,
      "city": "Borgo Virgilio",
      "province": "Mantova",
      "state": "Italy",
      "number_of_deads": null,
      "icon": "https://drive.google.com/open?id=1oEXbQzbeY4MW0h2oLtIJbcxFlSXmOZtE",
      "id": 3,
      "area_id": null,
      "latitude": 45.117311,
      "longitude": 10.805171
    },
    {
      "name": "Cimitero degli Angeli",
      "address": "Via Cremona",
      "address_number": 40,
      "city": "Castelnuovo Angeli",
      "province": "Mantova",
      "state": "Italy",
      "number_of_deads": null,
      "icon": "https://drive.google.com/open?id=1stWQfsIx9ZXhhFh1OK_0I5lq4A3ShDNM",
      "id": 4,
      "area_id": null,
      "latitude": 45.155288,
      "longitude": 10.757522
    },
        {
      "name": "Cimitero di Bisceglie",
      "address": "Via Giovanni Bovio",
      "address_number": 108,
      "city": "Bisceglie",
      "province": "Barletta",
      "state": "Italy",
      "number_of_deads": null,
      "icon": "https://drive.google.com/open?id=1yy6nhzDXEK4YL8nmQfAJ8kZapx07Me49",
      "id": 0,
      "area_id": 52,
      "latitude": 41.2447472,
      "longitude": 16.496307
    },
    {
      "name": "Cimitero di Trani",
      "address": "Via Barletta",
      "address_number": 74,
      "city": "Trani",
      "province": "Barletta",
      "state": "Italy",
      "number_of_deads": null,
      "icon": "https://drive.google.com/open?id=1SDt2LePv0SV0CcWQsKUS3oL1N4kX7Vvd",
      "id": 1,
      "area_id": null,
      "latitude": 41.2824834,
      "longitude": 16.4048181
    },
    {
      "name": "Cimitero di Moletta",
      "address": "Via del Cimitero",
      "address_number": null,
      "city": "Molfetta",
      "province": "Barletta",
      "state": "Italy",
      "number_of_deads": null,
      "icon": "https://drive.google.com/open?id=1lePRUPlh8KgvhdmkXDG5_g40f0ANwdkO",
      "id": 2,
      "area_id": null,
      "latitude": 41.2052171,
      "longitude": 16.5801596
    },
    {
      "name": "Cimitero di Cerese",
      "address": "Via Maragnane",
      "address_number": 1,
      "city": "Borgo Virgilio",
      "province": "Mantova",
      "state": "Italy",
      "number_of_deads": null,
      "icon": "https://drive.google.com/open?id=1oEXbQzbeY4MW0h2oLtIJbcxFlSXmOZtE",
      "id": 3,
      "area_id": null,
      "latitude": 45.117311,
      "longitude": 10.805171
    },
    {
      "name": "Cimitero degli Angeli",
      "address": "Via Cremona",
      "address_number": 40,
      "city": "Castelnuovo Angeli",
      "province": "Mantova",
      "state": "Italy",
      "number_of_deads": null,
      "icon": "https://drive.google.com/open?id=1stWQfsIx9ZXhhFh1OK_0I5lq4A3ShDNM",
      "id": 4,
      "area_id": null,
      "latitude": 45.155288,
      "longitude": 10.757522
    },
        {
      "name": "Cimitero di Bisceglie",
      "address": "Via Giovanni Bovio",
      "address_number": 108,
      "city": "Bisceglie",
      "province": "Barletta",
      "state": "Italy",
      "number_of_deads": null,
      "icon": "https://drive.google.com/open?id=1yy6nhzDXEK4YL8nmQfAJ8kZapx07Me49",
      "id": 0,
      "area_id": 52,
      "latitude": 41.2447472,
      "longitude": 16.496307
    },
    {
      "name": "Cimitero di Trani",
      "address": "Via Barletta",
      "address_number": 74,
      "city": "Trani",
      "province": "Barletta",
      "state": "Italy",
      "number_of_deads": null,
      "icon": "https://drive.google.com/open?id=1SDt2LePv0SV0CcWQsKUS3oL1N4kX7Vvd",
      "id": 1,
      "area_id": null,
      "latitude": 41.2824834,
      "longitude": 16.4048181
    },
    {
      "name": "Cimitero di Moletta",
      "address": "Via del Cimitero",
      "address_number": null,
      "city": "Molfetta",
      "province": "Barletta",
      "state": "Italy",
      "number_of_deads": null,
      "icon": "https://drive.google.com/open?id=1lePRUPlh8KgvhdmkXDG5_g40f0ANwdkO",
      "id": 2,
      "area_id": null,
      "latitude": 41.2052171,
      "longitude": 16.5801596
    },
    {
      "name": "Cimitero di Cerese",
      "address": "Via Maragnane",
      "address_number": 1,
      "city": "Borgo Virgilio",
      "province": "Mantova",
      "state": "Italy",
      "number_of_deads": null,
      "icon": "https://drive.google.com/open?id=1oEXbQzbeY4MW0h2oLtIJbcxFlSXmOZtE",
      "id": 3,
      "area_id": null,
      "latitude": 45.117311,
      "longitude": 10.805171
    },
    {
      "name": "Cimitero degli Angeli",
      "address": "Via Cremona",
      "address_number": 40,
      "city": "Castelnuovo Angeli",
      "province": "Mantova",
      "state": "Italy",
      "number_of_deads": null,
      "icon": "https://drive.google.com/open?id=1stWQfsIx9ZXhhFh1OK_0I5lq4A3ShDNM",
      "id": 4,
      "area_id": null,
      "latitude": 45.155288,
      "longitude": 10.757522
    },
        {
      "name": "Cimitero di Bisceglie",
      "address": "Via Giovanni Bovio",
      "address_number": 108,
      "city": "Bisceglie",
      "province": "Barletta",
      "state": "Italy",
      "number_of_deads": null,
      "icon": "https://drive.google.com/open?id=1yy6nhzDXEK4YL8nmQfAJ8kZapx07Me49",
      "id": 0,
      "area_id": 52,
      "latitude": 41.2447472,
      "longitude": 16.496307
    },
    {
      "name": "Cimitero di Trani",
      "address": "Via Barletta",
      "address_number": 74,
      "city": "Trani",
      "province": "Barletta",
      "state": "Italy",
      "number_of_deads": null,
      "icon": "https://drive.google.com/open?id=1SDt2LePv0SV0CcWQsKUS3oL1N4kX7Vvd",
      "id": 1,
      "area_id": null,
      "latitude": 41.2824834,
      "longitude": 16.4048181
    },
    {
      "name": "Cimitero di Moletta",
      "address": "Via del Cimitero",
      "address_number": null,
      "city": "Molfetta",
      "province": "Barletta",
      "state": "Italy",
      "number_of_deads": null,
      "icon": "https://drive.google.com/open?id=1lePRUPlh8KgvhdmkXDG5_g40f0ANwdkO",
      "id": 2,
      "area_id": null,
      "latitude": 41.2052171,
      "longitude": 16.5801596
    },
    {
      "name": "Cimitero di Cerese",
      "address": "Via Maragnane",
      "address_number": 1,
      "city": "Borgo Virgilio",
      "province": "Mantova",
      "state": "Italy",
      "number_of_deads": null,
      "icon": "https://drive.google.com/open?id=1oEXbQzbeY4MW0h2oLtIJbcxFlSXmOZtE",
      "id": 3,
      "area_id": null,
      "latitude": 45.117311,
      "longitude": 10.805171
    },
    {
      "name": "Cimitero degli Angeli",
      "address": "Via Cremona",
      "address_number": 40,
      "city": "Castelnuovo Angeli",
      "province": "Mantova",
      "state": "Italy",
      "number_of_deads": null,
      "icon": "https://drive.google.com/open?id=1stWQfsIx9ZXhhFh1OK_0I5lq4A3ShDNM",
      "id": 4,
      "area_id": null,
      "latitude": 45.155288,
      "longitude": 10.757522
    },
        {
      "name": "Cimitero di Bisceglie",
      "address": "Via Giovanni Bovio",
      "address_number": 108,
      "city": "Bisceglie",
      "province": "Barletta",
      "state": "Italy",
      "number_of_deads": null,
      "icon": "https://drive.google.com/open?id=1yy6nhzDXEK4YL8nmQfAJ8kZapx07Me49",
      "id": 0,
      "area_id": 52,
      "latitude": 41.2447472,
      "longitude": 16.496307
    },
    {
      "name": "Cimitero di Trani",
      "address": "Via Barletta",
      "address_number": 74,
      "city": "Trani",
      "province": "Barletta",
      "state": "Italy",
      "number_of_deads": null,
      "icon": "https://drive.google.com/open?id=1SDt2LePv0SV0CcWQsKUS3oL1N4kX7Vvd",
      "id": 1,
      "area_id": null,
      "latitude": 41.2824834,
      "longitude": 16.4048181
    },
    {
      "name": "Cimitero di Moletta",
      "address": "Via del Cimitero",
      "address_number": null,
      "city": "Molfetta",
      "province": "Barletta",
      "state": "Italy",
      "number_of_deads": null,
      "icon": "https://drive.google.com/open?id=1lePRUPlh8KgvhdmkXDG5_g40f0ANwdkO",
      "id": 2,
      "area_id": null,
      "latitude": 41.2052171,
      "longitude": 16.5801596
    },
    {
      "name": "Cimitero di Cerese",
      "address": "Via Maragnane",
      "address_number": 1,
      "city": "Borgo Virgilio",
      "province": "Mantova",
      "state": "Italy",
      "number_of_deads": null,
      "icon": "https://drive.google.com/open?id=1oEXbQzbeY4MW0h2oLtIJbcxFlSXmOZtE",
      "id": 3,
      "area_id": null,
      "latitude": 45.117311,
      "longitude": 10.805171
    },
    {
      "name": "Cimitero degli Angeli",
      "address": "Via Cremona",
      "address_number": 40,
      "city": "Castelnuovo Angeli",
      "province": "Mantova",
      "state": "Italy",
      "number_of_deads": null,
      "icon": "https://drive.google.com/open?id=1stWQfsIx9ZXhhFh1OK_0I5lq4A3ShDNM",
      "id": 4,
      "area_id": null,
      "latitude": 45.155288,
      "longitude": 10.757522
    },
        {
      "name": "Cimitero di Bisceglie",
      "address": "Via Giovanni Bovio",
      "address_number": 108,
      "city": "Bisceglie",
      "province": "Barletta",
      "state": "Italy",
      "number_of_deads": null,
      "icon": "https://drive.google.com/open?id=1yy6nhzDXEK4YL8nmQfAJ8kZapx07Me49",
      "id": 0,
      "area_id": 52,
      "latitude": 41.2447472,
      "longitude": 16.496307
    },
    {
      "name": "Cimitero di Trani",
      "address": "Via Barletta",
      "address_number": 74,
      "city": "Trani",
      "province": "Barletta",
      "state": "Italy",
      "number_of_deads": null,
      "icon": "https://drive.google.com/open?id=1SDt2LePv0SV0CcWQsKUS3oL1N4kX7Vvd",
      "id": 1,
      "area_id": null,
      "latitude": 41.2824834,
      "longitude": 16.4048181
    },
    {
      "name": "Cimitero di Moletta",
      "address": "Via del Cimitero",
      "address_number": null,
      "city": "Molfetta",
      "province": "Barletta",
      "state": "Italy",
      "number_of_deads": null,
      "icon": "https://drive.google.com/open?id=1lePRUPlh8KgvhdmkXDG5_g40f0ANwdkO",
      "id": 2,
      "area_id": null,
      "latitude": 41.2052171,
      "longitude": 16.5801596
    },
    {
      "name": "Cimitero di Cerese",
      "address": "Via Maragnane",
      "address_number": 1,
      "city": "Borgo Virgilio",
      "province": "Mantova",
      "state": "Italy",
      "number_of_deads": null,
      "icon": "https://drive.google.com/open?id=1oEXbQzbeY4MW0h2oLtIJbcxFlSXmOZtE",
      "id": 3,
      "area_id": null,
      "latitude": 45.117311,
      "longitude": 10.805171
    },
    {
      "name": "Cimitero degli Angeli",
      "address": "Via Cremona",
      "address_number": 40,
      "city": "Castelnuovo Angeli",
      "province": "Mantova",
      "state": "Italy",
      "number_of_deads": null,
      "icon": "https://drive.google.com/open?id=1stWQfsIx9ZXhhFh1OK_0I5lq4A3ShDNM",
      "id": 4,
      "area_id": null,
      "latitude": 45.155288,
      "longitude": 10.757522
    },
        {
      "name": "Cimitero di Bisceglie",
      "address": "Via Giovanni Bovio",
      "address_number": 108,
      "city": "Bisceglie",
      "province": "Barletta",
      "state": "Italy",
      "number_of_deads": null,
      "icon": "https://drive.google.com/open?id=1yy6nhzDXEK4YL8nmQfAJ8kZapx07Me49",
      "id": 0,
      "area_id": 52,
      "latitude": 41.2447472,
      "longitude": 16.496307
    },
    {
      "name": "Cimitero di Trani",
      "address": "Via Barletta",
      "address_number": 74,
      "city": "Trani",
      "province": "Barletta",
      "state": "Italy",
      "number_of_deads": null,
      "icon": "https://drive.google.com/open?id=1SDt2LePv0SV0CcWQsKUS3oL1N4kX7Vvd",
      "id": 1,
      "area_id": null,
      "latitude": 41.2824834,
      "longitude": 16.4048181
    },
    {
      "name": "Cimitero di Moletta",
      "address": "Via del Cimitero",
      "address_number": null,
      "city": "Molfetta",
      "province": "Barletta",
      "state": "Italy",
      "number_of_deads": null,
      "icon": "https://drive.google.com/open?id=1lePRUPlh8KgvhdmkXDG5_g40f0ANwdkO",
      "id": 2,
      "area_id": null,
      "latitude": 41.2052171,
      "longitude": 16.5801596
    },
    {
      "name": "Cimitero di Cerese",
      "address": "Via Maragnane",
      "address_number": 1,
      "city": "Borgo Virgilio",
      "province": "Mantova",
      "state": "Italy",
      "number_of_deads": null,
      "icon": "https://drive.google.com/open?id=1oEXbQzbeY4MW0h2oLtIJbcxFlSXmOZtE",
      "id": 3,
      "area_id": null,
      "latitude": 45.117311,
      "longitude": 10.805171
    },
    {
      "name": "Cimitero degli Angeli",
      "address": "Via Cremona",
      "address_number": 40,
      "city": "Castelnuovo Angeli",
      "province": "Mantova",
      "state": "Italy",
      "number_of_deads": null,
      "icon": "https://drive.google.com/open?id=1stWQfsIx9ZXhhFh1OK_0I5lq4A3ShDNM",
      "id": 4,
      "area_id": null,
      "latitude": 45.155288,
      "longitude": 10.757522
    },
        {
      "name": "Cimitero di Bisceglie",
      "address": "Via Giovanni Bovio",
      "address_number": 108,
      "city": "Bisceglie",
      "province": "Barletta",
      "state": "Italy",
      "number_of_deads": null,
      "icon": "https://drive.google.com/open?id=1yy6nhzDXEK4YL8nmQfAJ8kZapx07Me49",
      "id": 0,
      "area_id": 52,
      "latitude": 41.2447472,
      "longitude": 16.496307
    },
    {
      "name": "Cimitero di Trani",
      "address": "Via Barletta",
      "address_number": 74,
      "city": "Trani",
      "province": "Barletta",
      "state": "Italy",
      "number_of_deads": null,
      "icon": "https://drive.google.com/open?id=1SDt2LePv0SV0CcWQsKUS3oL1N4kX7Vvd",
      "id": 1,
      "area_id": null,
      "latitude": 41.2824834,
      "longitude": 16.4048181
    },
    {
      "name": "Cimitero di Moletta",
      "address": "Via del Cimitero",
      "address_number": null,
      "city": "Molfetta",
      "province": "Barletta",
      "state": "Italy",
      "number_of_deads": null,
      "icon": "https://drive.google.com/open?id=1lePRUPlh8KgvhdmkXDG5_g40f0ANwdkO",
      "id": 2,
      "area_id": null,
      "latitude": 41.2052171,
      "longitude": 16.5801596
    },
    {
      "name": "Cimitero di Cerese",
      "address": "Via Maragnane",
      "address_number": 1,
      "city": "Borgo Virgilio",
      "province": "Mantova",
      "state": "Italy",
      "number_of_deads": null,
      "icon": "https://drive.google.com/open?id=1oEXbQzbeY4MW0h2oLtIJbcxFlSXmOZtE",
      "id": 3,
      "area_id": null,
      "latitude": 45.117311,
      "longitude": 10.805171
    },
    {
      "name": "Cimitero degli Angeli",
      "address": "Via Cremona",
      "address_number": 40,
      "city": "Castelnuovo Angeli",
      "province": "Mantova",
      "state": "Italy",
      "number_of_deads": null,
      "icon": "https://drive.google.com/open?id=1stWQfsIx9ZXhhFh1OK_0I5lq4A3ShDNM",
      "id": 4,
      "area_id": null,
      "latitude": 45.155288,
      "longitude": 10.757522
    },
        {
      "name": "Cimitero di Bisceglie",
      "address": "Via Giovanni Bovio",
      "address_number": 108,
      "city": "Bisceglie",
      "province": "Barletta",
      "state": "Italy",
      "number_of_deads": null,
      "icon": "https://drive.google.com/open?id=1yy6nhzDXEK4YL8nmQfAJ8kZapx07Me49",
      "id": 0,
      "area_id": 52,
      "latitude": 41.2447472,
      "longitude": 16.496307
    },
    {
      "name": "Cimitero di Trani",
      "address": "Via Barletta",
      "address_number": 74,
      "city": "Trani",
      "province": "Barletta",
      "state": "Italy",
      "number_of_deads": null,
      "icon": "https://drive.google.com/open?id=1SDt2LePv0SV0CcWQsKUS3oL1N4kX7Vvd",
      "id": 1,
      "area_id": null,
      "latitude": 41.2824834,
      "longitude": 16.4048181
    },
    {
      "name": "Cimitero di Moletta",
      "address": "Via del Cimitero",
      "address_number": null,
      "city": "Molfetta",
      "province": "Barletta",
      "state": "Italy",
      "number_of_deads": null,
      "icon": "https://drive.google.com/open?id=1lePRUPlh8KgvhdmkXDG5_g40f0ANwdkO",
      "id": 2,
      "area_id": null,
      "latitude": 41.2052171,
      "longitude": 16.5801596
    },
    {
      "name": "Cimitero di Cerese",
      "address": "Via Maragnane",
      "address_number": 1,
      "city": "Borgo Virgilio",
      "province": "Mantova",
      "state": "Italy",
      "number_of_deads": null,
      "icon": "https://drive.google.com/open?id=1oEXbQzbeY4MW0h2oLtIJbcxFlSXmOZtE",
      "id": 3,
      "area_id": null,
      "latitude": 45.117311,
      "longitude": 10.805171
    },
    {
      "name": "Cimitero degli Angeli",
      "address": "Via Cremona",
      "address_number": 40,
      "city": "Castelnuovo Angeli",
      "province": "Mantova",
      "state": "Italy",
      "number_of_deads": null,
      "icon": "https://drive.google.com/open?id=1stWQfsIx9ZXhhFh1OK_0I5lq4A3ShDNM",
      "id": 4,
      "area_id": null,
      "latitude": 45.155288,
      "longitude": 10.757522
    },
        {
      "name": "Cimitero di Bisceglie",
      "address": "Via Giovanni Bovio",
      "address_number": 108,
      "city": "Bisceglie",
      "province": "Barletta",
      "state": "Italy",
      "number_of_deads": null,
      "icon": "https://drive.google.com/open?id=1yy6nhzDXEK4YL8nmQfAJ8kZapx07Me49",
      "id": 0,
      "area_id": 52,
      "latitude": 41.2447472,
      "longitude": 16.496307
    },
    {
      "name": "Cimitero di Trani",
      "address": "Via Barletta",
      "address_number": 74,
      "city": "Trani",
      "province": "Barletta",
      "state": "Italy",
      "number_of_deads": null,
      "icon": "https://drive.google.com/open?id=1SDt2LePv0SV0CcWQsKUS3oL1N4kX7Vvd",
      "id": 1,
      "area_id": null,
      "latitude": 41.2824834,
      "longitude": 16.4048181
    },
    {
      "name": "Cimitero di Moletta",
      "address": "Via del Cimitero",
      "address_number": null,
      "city": "Molfetta",
      "province": "Barletta",
      "state": "Italy",
      "number_of_deads": null,
      "icon": "https://drive.google.com/open?id=1lePRUPlh8KgvhdmkXDG5_g40f0ANwdkO",
      "id": 2,
      "area_id": null,
      "latitude": 41.2052171,
      "longitude": 16.5801596
    },
    {
      "name": "Cimitero di Cerese",
      "address": "Via Maragnane",
      "address_number": 1,
      "city": "Borgo Virgilio",
      "province": "Mantova",
      "state": "Italy",
      "number_of_deads": null,
      "icon": "https://drive.google.com/open?id=1oEXbQzbeY4MW0h2oLtIJbcxFlSXmOZtE",
      "id": 3,
      "area_id": null,
      "latitude": 45.117311,
      "longitude": 10.805171
    },
    {
      "name": "Cimitero degli Angeli",
      "address": "Via Cremona",
      "address_number": 40,
      "city": "Castelnuovo Angeli",
      "province": "Mantova",
      "state": "Italy",
      "number_of_deads": null,
      "icon": "https://drive.google.com/open?id=1stWQfsIx9ZXhhFh1OK_0I5lq4A3ShDNM",
      "id": 4,
      "area_id": null,
      "latitude": 45.155288,
      "longitude": 10.757522
    },
        {
      "name": "Cimitero di Bisceglie",
      "address": "Via Giovanni Bovio",
      "address_number": 108,
      "city": "Bisceglie",
      "province": "Barletta",
      "state": "Italy",
      "number_of_deads": null,
      "icon": "https://drive.google.com/open?id=1yy6nhzDXEK4YL8nmQfAJ8kZapx07Me49",
      "id": 0,
      "area_id": 52,
      "latitude": 41.2447472,
      "longitude": 16.496307
    },
    {
      "name": "Cimitero di Trani",
      "address": "Via Barletta",
      "address_number": 74,
      "city": "Trani",
      "province": "Barletta",
      "state": "Italy",
      "number_of_deads": null,
      "icon": "https://drive.google.com/open?id=1SDt2LePv0SV0CcWQsKUS3oL1N4kX7Vvd",
      "id": 1,
      "area_id": null,
      "latitude": 41.2824834,
      "longitude": 16.4048181
    },
    {
      "name": "Cimitero di Moletta",
      "address": "Via del Cimitero",
      "address_number": null,
      "city": "Molfetta",
      "province": "Barletta",
      "state": "Italy",
      "number_of_deads": null,
      "icon": "https://drive.google.com/open?id=1lePRUPlh8KgvhdmkXDG5_g40f0ANwdkO",
      "id": 2,
      "area_id": null,
      "latitude": 41.2052171,
      "longitude": 16.5801596
    },
    {
      "name": "Cimitero di Cerese",
      "address": "Via Maragnane",
      "address_number": 1,
      "city": "Borgo Virgilio",
      "province": "Mantova",
      "state": "Italy",
      "number_of_deads": null,
      "icon": "https://drive.google.com/open?id=1oEXbQzbeY4MW0h2oLtIJbcxFlSXmOZtE",
      "id": 3,
      "area_id": null,
      "latitude": 45.117311,
      "longitude": 10.805171
    },
    {
      "name": "Cimitero degli Angeli",
      "address": "Via Cremona",
      "address_number": 40,
      "city": "Castelnuovo Angeli",
      "province": "Mantova",
      "state": "Italy",
      "number_of_deads": null,
      "icon": "https://drive.google.com/open?id=1stWQfsIx9ZXhhFh1OK_0I5lq4A3ShDNM",
      "id": 4,
      "area_id": null,
      "latitude": 45.155288,
      "longitude": 10.757522
    },
        {
      "name": "Cimitero di Bisceglie",
      "address": "Via Giovanni Bovio",
      "address_number": 108,
      "city": "Bisceglie",
      "province": "Barletta",
      "state": "Italy",
      "number_of_deads": null,
      "icon": "https://drive.google.com/open?id=1yy6nhzDXEK4YL8nmQfAJ8kZapx07Me49",
      "id": 0,
      "area_id": 52,
      "latitude": 41.2447472,
      "longitude": 16.496307
    },
    {
      "name": "Cimitero di Trani",
      "address": "Via Barletta",
      "address_number": 74,
      "city": "Trani",
      "province": "Barletta",
      "state": "Italy",
      "number_of_deads": null,
      "icon": "https://drive.google.com/open?id=1SDt2LePv0SV0CcWQsKUS3oL1N4kX7Vvd",
      "id": 1,
      "area_id": null,
      "latitude": 41.2824834,
      "longitude": 16.4048181
    },
    {
      "name": "Cimitero di Moletta",
      "address": "Via del Cimitero",
      "address_number": null,
      "city": "Molfetta",
      "province": "Barletta",
      "state": "Italy",
      "number_of_deads": null,
      "icon": "https://drive.google.com/open?id=1lePRUPlh8KgvhdmkXDG5_g40f0ANwdkO",
      "id": 2,
      "area_id": null,
      "latitude": 41.2052171,
      "longitude": 16.5801596
    },
    {
      "name": "Cimitero di Cerese",
      "address": "Via Maragnane",
      "address_number": 1,
      "city": "Borgo Virgilio",
      "province": "Mantova",
      "state": "Italy",
      "number_of_deads": null,
      "icon": "https://drive.google.com/open?id=1oEXbQzbeY4MW0h2oLtIJbcxFlSXmOZtE",
      "id": 3,
      "area_id": null,
      "latitude": 45.117311,
      "longitude": 10.805171
    },
    {
      "name": "Cimitero degli Angeli",
      "address": "Via Cremona",
      "address_number": 40,
      "city": "Castelnuovo Angeli",
      "province": "Mantova",
      "state": "Italy",
      "number_of_deads": null,
      "icon": "https://drive.google.com/open?id=1stWQfsIx9ZXhhFh1OK_0I5lq4A3ShDNM",
      "id": 4,
      "area_id": null,
      "latitude": 45.155288,
      "longitude": 10.757522
    },
        {
      "name": "Cimitero di Bisceglie",
      "address": "Via Giovanni Bovio",
      "address_number": 108,
      "city": "Bisceglie",
      "province": "Barletta",
      "state": "Italy",
      "number_of_deads": null,
      "icon": "https://drive.google.com/open?id=1yy6nhzDXEK4YL8nmQfAJ8kZapx07Me49",
      "id": 0,
      "area_id": 52,
      "latitude": 41.2447472,
      "longitude": 16.496307
    },
    {
      "name": "Cimitero di Trani",
      "address": "Via Barletta",
      "address_number": 74,
      "city": "Trani",
      "province": "Barletta",
      "state": "Italy",
      "number_of_deads": null,
      "icon": "https://drive.google.com/open?id=1SDt2LePv0SV0CcWQsKUS3oL1N4kX7Vvd",
      "id": 1,
      "area_id": null,
      "latitude": 41.2824834,
      "longitude": 16.4048181
    },
    {
      "name": "Cimitero di Moletta",
      "address": "Via del Cimitero",
      "address_number": null,
      "city": "Molfetta",
      "province": "Barletta",
      "state": "Italy",
      "number_of_deads": null,
      "icon": "https://drive.google.com/open?id=1lePRUPlh8KgvhdmkXDG5_g40f0ANwdkO",
      "id": 2,
      "area_id": null,
      "latitude": 41.2052171,
      "longitude": 16.5801596
    },
    {
      "name": "Cimitero di Cerese",
      "address": "Via Maragnane",
      "address_number": 1,
      "city": "Borgo Virgilio",
      "province": "Mantova",
      "state": "Italy",
      "number_of_deads": null,
      "icon": "https://drive.google.com/open?id=1oEXbQzbeY4MW0h2oLtIJbcxFlSXmOZtE",
      "id": 3,
      "area_id": null,
      "latitude": 45.117311,
      "longitude": 10.805171
    },
    {
      "name": "Cimitero degli Angeli",
      "address": "Via Cremona",
      "address_number": 40,
      "city": "Castelnuovo Angeli",
      "province": "Mantova",
      "state": "Italy",
      "number_of_deads": null,
      "icon": "https://drive.google.com/open?id=1stWQfsIx9ZXhhFh1OK_0I5lq4A3ShDNM",
      "id": 4,
      "area_id": null,
      "latitude": 45.155288,
      "longitude": 10.757522
    },
        {
      "name": "Cimitero di Bisceglie",
      "address": "Via Giovanni Bovio",
      "address_number": 108,
      "city": "Bisceglie",
      "province": "Barletta",
      "state": "Italy",
      "number_of_deads": null,
      "icon": "https://drive.google.com/open?id=1yy6nhzDXEK4YL8nmQfAJ8kZapx07Me49",
      "id": 0,
      "area_id": 52,
      "latitude": 41.2447472,
      "longitude": 16.496307
    },
    {
      "name": "Cimitero di Trani",
      "address": "Via Barletta",
      "address_number": 74,
      "city": "Trani",
      "province": "Barletta",
      "state": "Italy",
      "number_of_deads": null,
      "icon": "https://drive.google.com/open?id=1SDt2LePv0SV0CcWQsKUS3oL1N4kX7Vvd",
      "id": 1,
      "area_id": null,
      "latitude": 41.2824834,
      "longitude": 16.4048181
    },
    {
      "name": "Cimitero di Moletta",
      "address": "Via del Cimitero",
      "address_number": null,
      "city": "Molfetta",
      "province": "Barletta",
      "state": "Italy",
      "number_of_deads": null,
      "icon": "https://drive.google.com/open?id=1lePRUPlh8KgvhdmkXDG5_g40f0ANwdkO",
      "id": 2,
      "area_id": null,
      "latitude": 41.2052171,
      "longitude": 16.5801596
    },
    {
      "name": "Cimitero di Cerese",
      "address": "Via Maragnane",
      "address_number": 1,
      "city": "Borgo Virgilio",
      "province": "Mantova",
      "state": "Italy",
      "number_of_deads": null,
      "icon": "https://drive.google.com/open?id=1oEXbQzbeY4MW0h2oLtIJbcxFlSXmOZtE",
      "id": 3,
      "area_id": null,
      "latitude": 45.117311,
      "longitude": 10.805171
    },
    {
      "name": "Cimitero degli Angeli",
      "address": "Via Cremona",
      "address_number": 40,
      "city": "Castelnuovo Angeli",
      "province": "Mantova",
      "state": "Italy",
      "number_of_deads": null,
      "icon": "https://drive.google.com/open?id=1stWQfsIx9ZXhhFh1OK_0I5lq4A3ShDNM",
      "id": 4,
      "area_id": null,
      "latitude": 45.155288,
      "longitude": 10.757522
    }
  ]
}
